[{"image": "https://www.meudon.fr/wp-content/uploads/sites/5/2021/04/Pharmacie_Bellevue.jpg", "pharmacie": "Pharmacie de Bellevue", "adresse": "22 rue Marcel All\u00e9got", "quartier": "Bellevue", "horaires_d_ouverture": "Du lundi au samedi de 9h \u00e0 13h et de 14h \u00e0 20h", "contact": "01 45 34 10 98", "web": null, "latitude": "48.8205074", "longitude": "2.2285967", "point_geo": {"lon": 2.2285967, "lat": 48.8205074}},{"image": "https://www.meudon.fr/wp-content/uploads/sites/5/2021/04/Pharmacie-du-Moulin.jpg", "pharmacie": "Pharmacie du Moulin", "adresse": "17 avenue du Mar\u00e9chal-Leclerc", "quartier": "Meudon-la-For\u00eat", "horaires_d_ouverture": "Le lundi de 14h30 \u00e0 19h45 et du mardi au samedi de 9h \u00e0 12h30 et de 14h30 \u00e0 19h45", "contact": "01 46 31 10 13", "web": null, "latitude": "48.7896112", "longitude": "2.2230854", "point_geo": {"lon": 2.2230854, "lat": 48.7896112}},{"image": "https://www.meudon.fr/wp-content/uploads/sites/5/2021/04/Pharmacie-de-Trivaux.jpg", "pharmacie": "Pharmacie de Trivaux", "adresse": "2 all\u00e9e Marcel-Simon", "quartier": "Meudon-la-For\u00eat", "horaires_d_ouverture": "Du lundi au samedi de 9h \u00e0 20h", "contact": "01 46 31 60 76", "web": "http://www.pharmaciedetrivaux.fr/?fbclid=IwAR2B5o7zLpJhgT3YgrRa47jbk13jLwQpopTDFB3lALmtmjjKmrpqnYE1cZI", "latitude": "48.7876236", "longitude": "2.2346608", "point_geo": {"lon": 2.2346608, "lat": 48.7876236}},{"image": "https://www.meudon.fr/wp-content/uploads/sites/5/2021/04/Pharma_Conseil.jpg", "pharmacie": "Pharmacie Pharma Conseil", "adresse": "39 rue de la R\u00e9publique", "quartier": "Centre", "horaires_d_ouverture": "Du lundi au samedi de 9h \u00e0 13h et de 14h \u00e0 19h30", "contact": "01 55 64 01 01", "web": "https://www.facebook.com/pharmaconseil", "latitude": "48.8077948", "longitude": "2.2360871", "point_geo": {"lon": 2.2360871, "lat": 48.8077948}},{"image": null, "pharmacie": "Pharmacie de l'\u00e9coquartier", "adresse": "12-14 place Simone-Veil", "quartier": "Meudon-la-For\u00eat", "horaires_d_ouverture": "Du lundi au samedi de 9h \u00e0 20h", "contact": "01 46 26 01 33", "web": "https://www.facebook.com/pharmaciedelecoquartier", "latitude": "48.7828677", "longitude": "2.2283531", "point_geo": {"lon": 2.2283531, "lat": 48.7828677}},{"image": "https://www.meudon.fr/wp-content/uploads/sites/5/2021/04/Pharmacie-des-4-saisons.jpg", "pharmacie": "Pharmacie des Quatre Saisons", "adresse": "32 rue de la R\u00e9publique", "quartier": "Centre", "horaires_d_ouverture": "Du lundi au samedi de 9h \u00e0 13h et de 14h \u00e0 20h", "contact": "01 45 34 10 53", "web": null, "latitude": "48.8080684", "longitude": "2.2360969", "point_geo": {"lon": 2.2360969, "lat": 48.8080684}},{"image": "https://www.meudon.fr/wp-content/uploads/sites/5/2021/04/Pharmacie-Observatoire.jpg", "pharmacie": "Pharmacie de l'Observatoire", "adresse": "38 rue de la R\u00e9publique", "quartier": "Centre", "horaires_d_ouverture": "Du lundi au samedi de 8h30 \u00e0 20h", "contact": "01 45 34 12 45", "web": "https://www.facebook.com/Pharmacie-de-lObservatoire-286691625398145/", "latitude": "48.8071392", "longitude": "2.2359836", "point_geo": {"lon": 2.2359836, "lat": 48.8071392}},{"image": "https://www.meudon.fr/wp-content/uploads/sites/5/2021/04/Pharmacie-du-Val-Fleury.jpg", "pharmacie": "Pharmacie du Val-Fleury", "adresse": "24 rue Ban\u00e8s", "quartier": "Val-Fleury", "horaires_d_ouverture": "Du lundi au samedi de 8h \u00e0 12h30 et de 14h \u00e0 20h", "contact": "01 45 34 14 46", "web": "https://www.facebook.com/pharmacieValFleury.Meudon", "latitude": "48.8076074", "longitude": "2.2416321", "point_geo": {"lon": 2.2416321, "lat": 48.8076074}},{"image": "https://www.meudon.fr/wp-content/uploads/sites/5/2021/04/Pharmacie_Cottard.jpg", "pharmacie": "Pharmacie Cottard", "adresse": "3 place Stalingrad", "quartier": "Centre", "horaires_d_ouverture": "Le lundi de 14h30 \u00e0 20h et du mardi au samedi de 9h \u00e0 12h30 et de 14h30 \u00e0 20h", "contact": "01 45 34 19 70", "web": "https://www.facebook.com/Pharmacie-Cottard-Meudon-106249734126025", "latitude": "48.8149022", "longitude": "2.2342975", "point_geo": {"lon": 2.2342975, "lat": 48.8149022}},{"image": "https://www.meudon.fr/wp-content/uploads/sites/5/2021/04/Pharmacie_Amar.jpg", "pharmacie": "Pharmacie Amar", "adresse": "15 avenue de Celle", "quartier": "Meudon-la-For\u00eat", "horaires_d_ouverture": "Le lundi de 10h \u00e0 13h et de 14h30 \u00e0 20h et du mardi au samedi de 9h \u00e0 13h et de 14h30 \u00e0 20h", "contact": "01 46 30 74 16", "web": "https://www.facebook.com/PharmacieAmarMLF/", "latitude": "48.7871643", "longitude": "2.2281495", "point_geo": {"lon": 2.2281495, "lat": 48.7871643}},{"image": "https://www.meudon.fr/wp-content/uploads/sites/5/2021/04/Pharmacie-de-la-Clinique-MLF.jpg", "pharmacie": "Pharmacie de la Clinique", "adresse": "7 rue de la Synagogue", "quartier": "Meudon-la-For\u00eat", "horaires_d_ouverture": "Du lundi au samedi de 9h30 \u00e0 12h30 et de 14h30 \u00e0 19h30", "contact": "01 46 30 86 30", "web": null, "latitude": "48.7840726", "longitude": "2.2317239", "point_geo": {"lon": 2.2317239, "lat": 48.7840726}},{"image": "https://www.meudon.fr/wp-content/uploads/sites/5/2021/04/Pharmacie_Centrale.jpg", "pharmacie": "Pharmacie centrale", "adresse": "7ter avenue du G\u00e9n\u00e9ral de Gaulle", "quartier": "Meudon-la-For\u00eat", "horaires_d_ouverture": "Du lundi au samedi de 9h \u00e0 13h et de 14h \u00e0 18h", "contact": "01 46 31 61 53", "web": "https://www.pharmaciecentralemeudonlaforet.com/", "latitude": "48.7884516", "longitude": "2.2303822", "point_geo": {"lon": 2.2303822, "lat": 48.7884516}}]